%time,field.header.seq,field.header.stamp,field.header.frame_id,field.orientation.x,field.orientation.y,field.orientation.z,field.orientation.w,field.orientation_covariance0,field.orientation_covariance1,field.orientation_covariance2,field.orientation_covariance3,field.orientation_covariance4,field.orientation_covariance5,field.orientation_covariance6,field.orientation_covariance7,field.orientation_covariance8,field.angular_velocity.x,field.angular_velocity.y,field.angular_velocity.z,field.angular_velocity_covariance0,field.angular_velocity_covariance1,field.angular_velocity_covariance2,field.angular_velocity_covariance3,field.angular_velocity_covariance4,field.angular_velocity_covariance5,field.angular_velocity_covariance6,field.angular_velocity_covariance7,field.angular_velocity_covariance8,field.linear_acceleration.x,field.linear_acceleration.y,field.linear_acceleration.z,field.linear_acceleration_covariance0,field.linear_acceleration_covariance1,field.linear_acceleration_covariance2,field.linear_acceleration_covariance3,field.linear_acceleration_covariance4,field.linear_acceleration_covariance5,field.linear_acceleration_covariance6,field.linear_acceleration_covariance7,field.linear_acceleration_covariance8
1592874836524985426,1811,1592874836524879606,imu_link,0.00109645775876,0.00383380306089,0.882795721305,0.469740156022,0.0,0.0,0.0,0.0,0.0,0.0,0.0,0.0,0.0,0.00310191451264,-0.00103007533078,0.0012158453794,0.0,0.0,0.0,0.0,0.0,0.0,0.0,0.0,0.0,0.00486515235389,-0.0575796755962,-9.81265799999,0.0,0.0,0.0,0.0,0.0,0.0,0.0,0.0,0.0
1592874836535036174,1812,1592874836534884357,imu_link,0.00111349217682,0.00383036176005,0.882810725352,0.469711945417,0.0,0.0,0.0,0.0,0.0,0.0,0.0,0.0,0.0,0.00307982692054,-0.00236598714228,0.00975082719213,0.0,0.0,0.0,0.0,0.0,0.0,0.0,0.0,0.0,0.0072674849187,-0.0551670592278,-9.81262061596,0.0,0.0,0.0,0.0,0.0,0.0,0.0,0.0,0.0
1592874836545327558,1813,1592874836545164188,imu_link,0.00112319656236,0.00383209830123,0.88281713277,0.469699865383,0.0,0.0,0.0,0.0,0.0,0.0,0.0,0.0,0.0,0.00308928192255,-0.00109538207388,0.00610228508646,0.0,0.0,0.0,0.0,0.0,0.0,0.0,0.0,0.0,0.0120909806807,-0.0574825145304,-9.8199280262,0.0,0.0,0.0,0.0,0.0,0.0,0.0,0.0,0.0
1592874836555405357,1814,1592874836555244202,imu_link,0.00111840581277,0.00384578995347,0.882812189165,0.469709056471,0.0,0.0,0.0,0.0,0.0,0.0,0.0,0.0,0.0,0.00432361624564,0.00141311812521,0.00125160910981,0.0,0.0,0.0,0.0,0.0,0.0,0.0,0.0,0.0,0.0241340311244,-0.0524952006526,-9.83198087215,0.0,0.0,0.0,0.0,0.0,0.0,0.0,0.0,0.0
1592874836565077970,1815,1592874836564910082,imu_link,0.00111720948207,0.00385056034673,0.882803316176,0.469725696525,0.0,0.0,0.0,0.0,0.0,0.0,0.0,0.0,0.0,0.00310187888246,0.000191539521143,0.00123210964733,0.0,0.0,0.0,0.0,0.0,0.0,0.0,0.0,0.0,0.0217379733454,-0.0524626310915,-9.83441901207,0.0,0.0,0.0,0.0,0.0,0.0,0.0,0.0,0.0
1592874836575314278,1816,1592874836575111645,imu_link,0.00112798732964,0.00386399346604,0.882774359984,0.469779976748,0.0,0.0,0.0,0.0,0.0,0.0,0.0,0.0,0.0,0.00556740323008,-0.000915881246855,-0.00732924864317,0.0,0.0,0.0,0.0,0.0,0.0,0.0,0.0,0.0,0.0193356316537,-0.0548752292059,-9.83445756435,0.0,0.0,0.0,0.0,0.0,0.0,0.0,0.0,0.0
1592874836585069949,1817,1592874836584900939,imu_link,0.0010899114875,0.0038811956372,0.882777390127,0.469774230768,0.0,0.0,0.0,0.0,0.0,0.0,0.0,0.0,0.0,0.00186751660137,0.00867763830053,0.00622966064734,0.0,0.0,0.0,0.0,0.0,0.0,0.0,0.0,0.0,0.0145246837521,-0.052494872082,-9.83200540543,0.0,0.0,0.0,0.0,0.0,0.0,0.0,0.0,0.0
1592874836595334351,1818,1592874836594938361,imu_link,0.00107981206212,0.00387109510926,0.88277148939,0.469785425646,0.0,0.0,0.0,0.0,0.0,0.0,0.0,0.0,0.0,-0.0005664839425,0.00139696152804,0.0024605291001,0.0,0.0,0.0,0.0,0.0,0.0,0.0,0.0,0.0,0.0121348973364,-0.0548425227404,-9.83690505028,0.0,0.0,0.0,0.0,0.0,0.0,0.0,0.0,0.0
1592874836605096693,1819,1592874836604891455,imu_link,0.00109093407222,0.00387185429074,0.882742619662,0.469839638642,0.0,0.0,0.0,0.0,0.0,0.0,0.0,0.0,0.0,0.003123922522,-0.000915803939762,-0.00733561734319,0.0,0.0,0.0,0.0,0.0,0.0,0.0,0.0,0.0,0.00730512564769,-0.0573849336244,-9.82723076344,0.0,0.0,0.0,0.0,0.0,0.0,0.0,0.0,0.0
1592874836615061268,1820,1592874836614867682,imu_link,0.00107403572827,0.00389565820983,0.882736994899,0.46985004856,0.0,0.0,0.0,0.0,0.0,0.0,0.0,0.0,0.0,0.00432041004939,0.00628327600932,0.00253840627552,0.0,0.0,0.0,0.0,0.0,0.0,0.0,0.0,0.0,0.00727375742281,-0.0599599733949,-9.81511366367,0.0,0.0,0.0,0.0,0.0,0.0,0.0,0.0,0.0
1592874836625052403,1821,1592874836624874587,imu_link,0.00109022726572,0.00386750948538,0.882733817817,0.469856212747,0.0,0.0,0.0,0.0,0.0,0.0,0.0,0.0,0.0,-0.00179138725544,-0.00472743910851,0.00359730616367,0.0,0.0,0.0,0.0,0.0,0.0,0.0,0.0,0.0,0.00966355239507,-0.0600250121206,-9.8102478981,0.0,0.0,0.0,0.0,0.0,0.0,0.0,0.0,0.0
1592874836635089645,1822,1592874836634866724,imu_link,0.00111532484123,0.00385300869668,0.88271021426,0.469900615041,0.0,0.0,0.0,0.0,0.0,0.0,0.0,0.0,0.0,0.00189901927408,-0.00581858509182,-0.00618251125317,0.0,0.0,0.0,0.0,0.0,0.0,0.0,0.0,0.0,0.0168517394224,-0.0552972735837,-9.80287623405,0.0,0.0,0.0,0.0,0.0,0.0,0.0,0.0,0.0
1592874836645519351,1823,1592874836645300227,imu_link,0.00110040217714,0.00383119325652,0.882681241319,0.469955250313,0.0,0.0,0.0,0.0,0.0,0.0,0.0,0.0,0.0,-0.00298159008681,0.00032234239021,-0.00855674951342,0.0,0.0,0.0,0.0,0.0,0.0,0.0,0.0,0.0,0.0192415281199,-0.0529496229254,-9.79797775745,0.0,0.0,0.0,0.0,0.0,0.0,0.0,0.0,0.0
1592874836655175132,1824,1592874836654876777,imu_link,0.00111291302477,0.00380479297136,0.88267210574,0.469972593587,0.0,0.0,0.0,0.0,0.0,0.0,0.0,0.0,0.0,-0.000560226814363,-0.00590012099282,-8.07627813125e-05,0.0,0.0,0.0,0.0,0.0,0.0,0.0,0.0,0.0,0.0288696941454,-0.0456144804135,-9.80514497757,0.0,0.0,0.0,0.0,0.0,0.0,0.0,0.0,0.0
1592874836665091084,1825,1592874836664867992,imu_link,0.00108291819275,0.00378484879862,0.882680537172,0.469956988996,0.0,0.0,0.0,0.0,0.0,0.0,0.0,0.0,0.0,-0.00302261993215,0.00133174802159,0.007340568118,0.0,0.0,0.0,0.0,0.0,0.0,0.0,0.0,0.0,0.0384978647344,-0.0406919679604,-9.81234607697,0.0,0.0,0.0,0.0,0.0,0.0,0.0,0.0,0.0
1592874836675132355,1826,1592874836674867023,imu_link,0.00106204037075,0.00379030888968,0.882680346228,0.469957351269,0.0,0.0,0.0,0.0,0.0,0.0,0.0,0.0,0.0,0.00187373978981,0.00260218456183,0.00370464273789,0.0,0.0,0.0,0.0,0.0,0.0,0.0,0.0,0.0,0.0337182873394,-0.0453873331659,-9.82214186192,0.0,0.0,0.0,0.0,0.0,0.0,0.0,0.0,0.0
1592874836685098272,1827,1592874836684892653,imu_link,0.00108821571218,0.00380629918627,0.882682694962,0.469952750697,0.0,0.0,0.0,0.0,0.0,0.0,0.0,0.0,0.0,0.00797921026658,-0.00474407346221,0.00484406215658,0.0,0.0,0.0,0.0,0.0,0.0,0.0,0.0,0.0,0.0337308300659,-0.0477350705303,-9.82703332901,0.0,0.0,0.0,0.0,0.0,0.0,0.0,0.0,0.0
1592874836695065332,1828,1592874836694873169,imu_link,0.0010736055189,0.00380802195791,0.882682461266,0.469953209281,0.0,0.0,0.0,0.0,0.0,0.0,0.0,0.0,0.0,0.00187371651316,0.00138057346473,0.00368828640364,0.0,0.0,0.0,0.0,0.0,0.0,0.0,0.0,0.0,0.0313535897993,-0.0451924405992,-9.83672747612,0.0,0.0,0.0,0.0,0.0,0.0,0.0,0.0,0.0
1592874836705149804,1829,1592874836704880735,imu_link,0.0010541386667,0.00381371493375,0.882676543497,0.469964321976,0.0,0.0,0.0,0.0,0.0,0.0,0.0,0.0,0.0,0.00188001356271,0.00263485301769,0.001261362157,0.0,0.0,0.0,0.0,0.0,0.0,0.0,0.0,0.0,0.0313535897993,-0.0476051117294,-9.8367590189,0.0,0.0,0.0,0.0,0.0,0.0,0.0,0.0,0.0
1592874836715073481,1830,1592874836714891477,imu_link,0.00103991150502,0.00383444812027,0.882664769836,0.469986297334,0.0,0.0,0.0,0.0,0.0,0.0,0.0,0.0,0.0,0.00432976804368,0.00266742706657,-0.00117558002253,0.0,0.0,0.0,0.0,0.0,0.0,0.0,0.0,0.0,0.03613944198,-0.0549407607876,-9.82955441475,0.0,0.0,0.0,0.0,0.0,0.0,0.0,0.0,0.0
1592874836725111075,1831,1592874836724876361,imu_link,0.00103257391217,0.0038416570113,0.882658756161,0.469997548541,0.0,0.0,0.0,0.0,0.0,0.0,0.0,0.0,0.0,0.00187999964873,0.000191622419834,0.00122868030731,0.0,0.0,0.0,0.0,0.0,0.0,0.0,0.0,0.0,0.0361206199042,-0.0622762592509,-9.82236149311,0.0,0.0,0.0,0.0,0.0,0.0,0.0,0.0,0.0
1592874836735038820,1832,1592874836734908523,imu_link,0.0010442483113,0.00383055782024,0.882649675546,0.4700146664,0.0,0.0,0.0,0.0,0.0,0.0,0.0,0.0,0.0,0.000661420172994,-0.00467848687914,-6.14068717336e-05,0.0,0.0,0.0,0.0,0.0,0.0,0.0,0.0,0.0,0.0337120079901,-0.0598959477618,-9.81990582943,0.0,0.0,0.0,0.0,0.0,0.0,0.0,0.0,0.0
1592874836745359449,1833,1592874836745149762,imu_link,0.00104414518409,0.00383267003133,0.882655048209,0.470004559842,0.0,0.0,0.0,0.0,0.0,0.0,0.0,0.0,0.0,0.00186737043961,-0.00109528233538,0.00609879124801,0.0,0.0,0.0,0.0,0.0,0.0,0.0,0.0,0.0,0.0312783083413,-0.0600582251325,-9.80776302814,0.0,0.0,0.0,0.0,0.0,0.0,0.0,0.0,0.0
1592874836755434192,1834,1592874836754961378,imu_link,0.00110760918874,0.00384072651353,0.882659891737,0.469995252679,0.0,0.0,0.0,0.0,0.0,0.0,0.0,0.0,0.0,0.00919772712943,-0.0120901333096,0.00597077018266,0.0,0.0,0.0,0.0,0.0,0.0,0.0,0.0,0.0,0.0336931904778,-0.057580661308,-9.81258440018,0.0,0.0,0.0,0.0,0.0,0.0,0.0,0.0,0.0
1592874836765376345,1835,1592874836765198087,imu_link,0.00115314008848,0.00385231854693,0.882665022192,0.46998541308,0.0,0.0,0.0,0.0,0.0,0.0,0.0,0.0,0.0,0.00797599158676,-0.00842521588427,0.00601657707317,0.0,0.0,0.0,0.0,0.0,0.0,0.0,0.0,0.0,0.0313034006394,-0.0599283393472,-9.81748170853,0.0,0.0,0.0,0.0,0.0,0.0,0.0,0.0,0.0
1592874836775366408,1836,1592874836774973124,imu_link,0.00113505240864,0.00383007845993,0.882673345768,0.469970006304,0.0,0.0,0.0,0.0,0.0,0.0,0.0,0.0,0.0,-0.00424443271689,0.000110235996549,0.0073209195029,0.0,0.0,0.0,0.0,0.0,0.0,0.0,0.0,0.0,0.0265112759545,-0.0622759306803,-9.82238602638,0.0,0.0,0.0,0.0,0.0,0.0,0.0,0.0,0.0
1592874836785445730,1837,1592874836785222638,imu_link,0.00116267166286,0.00383724020233,0.882678550607,0.469960104775,0.0,0.0,0.0,0.0,0.0,0.0,0.0,0.0,0.0,0.00553252518277,-0.00476025632689,0.00605921469798,0.0,0.0,0.0,0.0,0.0,0.0,0.0,0.0,0.0,0.0217191489879,-0.0597981295548,-9.82722609043,0.0,0.0,0.0,0.0,0.0,0.0,0.0,0.0,0.0
1592874836795219234,1838,1592874836794963069,imu_link,0.00117092303282,0.00386524080281,0.882686873684,0.469944222093,0.0,0.0,0.0,0.0,0.0,0.0,0.0,0.0,0.0,0.00675109406048,0.00133148157544,0.00736559819099,0.0,0.0,0.0,0.0,0.0,0.0,0.0,0.0,0.0,0.0144995914539,-0.0671008896083,-9.82248182297,0.0,0.0,0.0,0.0,0.0,0.0,0.0,0.0,0.0
1592874836805250696,1839,1592874836804935028,imu_link,0.00118198550605,0.00389275975464,0.882703677905,0.469912402842,0.0,0.0,0.0,0.0,0.0,0.0,0.0,0.0,0.0,0.00674162839542,0.00128250294853,0.0110304334329,0.0,0.0,0.0,0.0,0.0,0.0,0.0,0.0,0.0,0.00966982832178,-0.0696433004923,-9.81280753613,0.0,0.0,0.0,0.0,0.0,0.0,0.0,0.0,0.0
1592874836815491092,1840,1592874836814961520,imu_link,0.00119656122537,0.0039113687975,0.882688861172,0.469940042769,0.0,0.0,0.0,0.0,0.0,0.0,0.0,0.0,0.0,0.00555459300923,0.000240497748478,-0.00242684973535,0.0,0.0,0.0,0.0,0.0,0.0,0.0,0.0,0.0,0.0048526044935,-0.0697080836631,-9.80796046257,0.0,0.0,0.0,0.0,0.0,0.0,0.0,0.0,0.0
1592874836825107098,1841,1592874836824896369,imu_link,0.00119220289535,0.00390977016643,0.882674254501,0.469967501845,0.0,0.0,0.0,0.0,0.0,0.0,0.0,0.0,0.0,0.000667678666521,0.00146228543604,-0.00242315511951,0.0,0.0,0.0,0.0,0.0,0.0,0.0,0.0,0.0,0.00726120899199,-0.0648503133096,-9.81031916142,0.0,0.0,0.0,0.0,0.0,0.0,0.0,0.0,0.0
1592874836835275579,1842,1592874836834972044,imu_link,0.00119244640766,0.00388377426882,0.882680070189,0.469956793823,0.0,0.0,0.0,0.0,0.0,0.0,0.0,0.0,0.0,-0.00302274294731,-0.00233305939232,0.00729132460539,0.0,0.0,0.0,0.0,0.0,0.0,0.0,0.0,0.0,0.0144933155272,-0.0623079936951,-9.81998643875,0.0,0.0,0.0,0.0,0.0,0.0,0.0,0.0,0.0
1592874836845413882,1843,1592874836844989760,imu_link,0.00119327536037,0.00385101219061,0.882657316397,0.46999979533,0.0,0.0,0.0,0.0,0.0,0.0,0.0,0.0,0.0,-0.00421292809363,-0.00339137801435,-0.00494434577523,0.0,0.0,0.0,0.0,0.0,0.0,0.0,0.0,0.0,0.0168956503738,-0.0623080712743,-9.8199805975,0.0,0.0,0.0,0.0,0.0,0.0,0.0,0.0,0.0
1592874836855172577,1844,1592874836854915842,imu_link,0.00117640778423,0.0038388324668,0.882643314269,0.470026232466,0.0,0.0,0.0,0.0,0.0,0.0,0.0,0.0,0.0,-0.00300067330033,0.00144608826728,-0.00121105676092,0.0,0.0,0.0,0.0,0.0,0.0,0.0,0.0,0.0,0.0192791699897,-0.0696436290629,-9.81278300285,0.0,0.0,0.0,0.0,0.0,0.0,0.0,0.0,0.0
1592874836865815857,1845,1592874836865531219,imu_link,0.00119320903864,0.0038378163996,0.882663478782,0.469988330326,0.0,0.0,0.0,0.0,0.0,0.0,0.0,0.0,0.0,0.00307010612257,-0.0036365069063,0.0133987981746,0.0,0.0,0.0,0.0,0.0,0.0,0.0,0.0,0.0,0.0216877819039,-0.0599604799412,-9.81507627964,0.0,0.0,0.0,0.0,0.0,0.0,0.0,0.0,0.0
1592874836875236763,1846,1592874836874967423,imu_link,0.00116744093464,0.00382675937637,0.882678256382,0.469960731024,0.0,0.0,0.0,0.0,0.0,0.0,0.0,0.0,0.0,-0.00181050505885,0.00250442314396,0.0110245536726,0.0,0.0,0.0,0.0,0.0,0.0,0.0,0.0,0.0,0.0265050011687,-0.0502449529245,-9.81979484558,0.0,0.0,0.0,0.0,0.0,0.0,0.0,0.0,0.0
1592874836885118261,1847,1592874836884918443,imu_link,0.00115914556286,0.00380407912695,0.882692749016,0.469933714686,0.0,0.0,0.0,0.0,0.0,0.0,0.0,0.0,0.0,-0.0018105171523,-0.00238206103581,0.0109592323653,0.0,0.0,0.0,0.0,0.0,0.0,0.0,0.0,0.0,0.0337182873394,-0.0453873331659,-9.82214186192,0.0,0.0,0.0,0.0,0.0,0.0,0.0,0.0,0.0
1592874836895449179,1848,1592874836894966877,imu_link,0.00114594008411,0.00377748471833,0.882704314847,0.469912236467,0.0,0.0,0.0,0.0,0.0,0.0,0.0,0.0,0.0,-0.00302910202458,-0.00236568467584,0.00973444355008,0.0,0.0,0.0,0.0,0.0,0.0,0.0,0.0,0.0,0.0385229593143,-0.0453874974512,-9.82212901115,0.0,0.0,0.0,0.0,0.0,0.0,0.0,0.0,0.0
1592874836905674548,1849,1592874836905480771,imu_link,0.00112878092787,0.00378197367945,0.882721181472,0.469880557493,0.0,0.0,0.0,0.0,0.0,0.0,0.0,0.0,0.0,0.00185464110187,0.00128269800427,0.0110176356956,0.0,0.0,0.0,0.0,0.0,0.0,0.0,0.0,0.0,0.0385355043225,-0.0477352348156,-9.8270216465,0.0,0.0,0.0,0.0,0.0,0.0,0.0,0.0,0.0
1592874836915744763,1850,1592874836915203579,imu_link,0.00116655479555,0.00377748231144,0.882726223307,0.469871029606,0.0,0.0,0.0,0.0,0.0,0.0,0.0,0.0,0.0,0.0043107056361,-0.00842505307775,0.00600685497483,0.0,0.0,0.0,0.0,0.0,0.0,0.0,0.0,0.0,0.0289198855869,-0.0598308360204,-9.82477860451,0.0,0.0,0.0,0.0,0.0,0.0,0.0,0.0,0.0
1592874836925016577,1851,1592874836924865020,imu_link,0.00121079250014,0.00378565720755,0.882739812667,0.469845321265,0.0,0.0,0.0,0.0,0.0,0.0,0.0,0.0,0.0,0.00674469311124,-0.00725248978733,0.00969432552532,0.0,0.0,0.0,0.0,0.0,0.0,0.0,0.0,0.0,0.0168831042247,-0.0647856944241,-9.81515338421,0.0,0.0,0.0,0.0,0.0,0.0,0.0,0.0,0.0
1592874836935604221,1852,1592874836934971714,imu_link,0.00121964937959,0.00378921622826,0.882733731304,0.469856695083,0.0,0.0,0.0,0.0,0.0,0.0,0.0,0.0,0.0,0.0031015836981,0.000191638251858,0.00123148091766,0.0,0.0,0.0,0.0,0.0,0.0,0.0,0.0,0.0,2.91136203487e-05,-0.0601545647718,-9.80055491924,0.0,0.0,0.0,0.0,0.0,0.0,0.0,0.0,0.0
1592874836945419123,1853,1592874836945173528,imu_link,0.00123551036567,0.00378501952632,0.882733318376,0.469857463248,0.0,0.0,0.0,0.0,0.0,0.0,0.0,0.0,0.0,0.00309526623272,-0.00106263670104,0.00365837447553,0.0,0.0,0.0,0.0,0.0,0.0,0.0,0.0,0.0,-0.00720298924716,-0.0530461268499,-9.79075679779,0.0,0.0,0.0,0.0,0.0,0.0,0.0,0.0,0.0
1592874836955338332,1854,1592874836954943986,imu_link,0.00120528784808,0.00375595631473,0.882739036411,0.469847032203,0.0,0.0,0.0,0.0,0.0,0.0,0.0,0.0,0.0,-0.00546313475265,0.00501310474489,0.0061611414662,0.0,0.0,0.0,0.0,0.0,0.0,0.0,0.0,0.0,-0.00960532694589,-0.0506333461963,-9.79073051214,0.0,0.0,0.0,0.0,0.0,0.0,0.0,0.0,0.0
1592874836965656586,1855,1592874836964946462,imu_link,0.00119320867041,0.00373408457234,0.882752236016,0.469822437388,0.0,0.0,0.0,0.0,0.0,0.0,0.0,0.0,0.0,-0.00302915820063,0.00129916981152,0.00978330943478,0.0,0.0,0.0,0.0,0.0,0.0,0.0,0.0,0.0,0.00241262578056,-0.05542667564,-9.79319376945,0.0,0.0,0.0,0.0,0.0,0.0,0.0,0.0,0.0
1592874836975212278,1856,1592874836975024542,imu_link,0.00119122547609,0.00374143436497,0.882762462462,0.469803168911,0.0,0.0,0.0,0.0,0.0,0.0,0.0,0.0,0.0,0.00308262349973,0.00131528362646,0.0085774446676,0.0,0.0,0.0,0.0,0.0,0.0,0.0,0.0,0.0,0.0120407938026,-0.0553295875899,-9.80045912266,0.0,0.0,0.0,0.0,0.0,0.0,0.0,0.0,0.0
1592874836985376590,1857,1592874836984894037,imu_link,0.00117234130128,0.00372611971195,0.882752607181,0.469821855774,0.0,0.0,0.0,0.0,0.0,0.0,0.0,0.0,0.0,-0.00300393983383,0.00142977432515,1.03382621613e-05,0.0,0.0,0.0,0.0,0.0,0.0,0.0,0.0,0.0,0.0192791699897,-0.0599928578362,-9.81265332699,0.0,0.0,0.0,0.0,0.0,0.0,0.0,0.0,0.0
1592874836995327440,1858,1592874836994950036,imu_link,0.00117198859164,0.00372558385131,0.882765590581,0.469797465462,0.0,0.0,0.0,0.0,0.0,0.0,0.0,0.0,0.0,0.00063600577517,-0.00114418749129,0.00976006815298,0.0,0.0,0.0,0.0,0.0,0.0,0.0,0.0,0.0,0.0265050011687,-0.0671337923035,-9.82002031803,0.0,0.0,0.0,0.0,0.0,0.0,0.0,0.0,0.0
1592874837005338473,1859,1592874837004992277,imu_link,0.00115844837548,0.00373334730946,0.882781471198,0.469767595971,0.0,0.0,0.0,0.0,0.0,0.0,0.0,0.0,0.0,0.000632849513186,0.00128273246412,0.0110143171472,0.0,0.0,0.0,0.0,0.0,0.0,0.0,0.0,0.0,0.0337371048518,-0.0694168195128,-9.82975418568,0.0,0.0,0.0,0.0,0.0,0.0,0.0,0.0,0.0
1592874837015282378,1860,1592874837014894825,imu_link,0.00114806277128,0.00373390578336,0.882797258889,0.469737947795,0.0,0.0,0.0,0.0,0.0,0.0,0.0,0.0,0.0,-0.000588879007472,6.11604188032e-05,0.0109948209357,0.0,0.0,0.0,0.0,0.0,0.0,0.0,0.0,0.0,0.0337308300659,-0.0718620054424,-9.82735693455,0.0,0.0,0.0,0.0,0.0,0.0,0.0,0.0,0.0
1592874837025127577,1861,1592874837024908252,imu_link,0.00115731871675,0.00375268726983,0.882821416004,0.46969237315,0.0,0.0,0.0,0.0,0.0,0.0,0.0,0.0,0.0,0.00428856680936,-0.00120959436301,0.0146559475177,0.0,0.0,0.0,0.0,0.0,0.0,0.0,0.0,0.0,0.0289261558093,-0.0742745168507,-9.82740015984,0.0,0.0,0.0,0.0,0.0,0.0,0.0,0.0,0.0
1592874837035241655,1862,1592874837034949983,imu_link,0.00113925994529,0.00377208879283,0.882840865678,0.469655702959,0.0,0.0,0.0,0.0,0.0,0.0,0.0,0.0,0.0,0.00185141995134,0.00370963018318,0.0122716922348,0.0,0.0,0.0,0.0,0.0,0.0,0.0,0.0,0.0,0.0289261558093,-0.0742745168507,-9.82740015984,0.0,0.0,0.0,0.0,0.0,0.0,0.0,0.0,0.0
1592874837045417770,1863,1592874837045196542,imu_link,0.00116609671264,0.00378131279799,0.882845650968,0.469646567601,0.0,0.0,0.0,0.0,0.0,0.0,0.0,0.0,0.0,0.00431064425856,-0.0047601751837,0.00605561630965,0.0,0.0,0.0,0.0,0.0,0.0,0.0,0.0,0.0,0.0241026617587,-0.0743717691861,-9.82012312412,0.0,0.0,0.0,0.0,0.0,0.0,0.0,0.0,0.0
1592874837055160335,1864,1592874837054932233,imu_link,0.00119070720594,0.00380527911703,0.882841800589,0.469653550184,0.0,0.0,0.0,0.0,0.0,0.0,0.0,0.0,0.0,0.00676355994293,-0.00348965541968,0.00241338230668,0.0,0.0,0.0,0.0,0.0,0.0,0.0,0.0,0.0,0.0289136108011,-0.0743394506164,-9.82254023552,0.0,0.0,0.0,0.0,0.0,0.0,0.0,0.0,0.0
1592874837065392416,1865,1592874837064979204,imu_link,0.00119390890711,0.00381835798464,0.882858127273,0.469622744159,0.0,0.0,0.0,0.0,0.0,0.0,0.0,0.0,0.0,0.00307629693175,-0.00116055266807,0.0109878748706,0.0,0.0,0.0,0.0,0.0,0.0,0.0,0.0,0.0,0.0337245598435,-0.071894474607,-9.82492697239,0.0,0.0,0.0,0.0,0.0,0.0,0.0,0.0,0.0
1592874837075787005,1866,1592874837075038228,imu_link,0.00120502807069,0.00384341078794,0.882880091529,0.469581217771,0.0,0.0,0.0,0.0,0.0,0.0,0.0,0.0,0.0,0.0055134424894,-0.0011932812011,0.0134374036071,0.0,0.0,0.0,0.0,0.0,0.0,0.0,0.0,0.0,0.0313096754253,-0.0767847232521,-9.82013714314,0.0,0.0,0.0,0.0,0.0,0.0,0.0,0.0,0.0
1592874837085254810,1867,1592874837084989397,imu_link,0.00120974553539,0.00386348020606,0.882879157308,0.469582797415,0.0,0.0,0.0,0.0,0.0,0.0,0.0,0.0,0.0,0.00431694741985,0.000158982815969,0.00367761997543,0.0,0.0,0.0,0.0,0.0,0.0,0.0,0.0,0.0,0.0240901167504,-0.0744367029518,-9.81526319981,0.0,0.0,0.0,0.0,0.0,0.0,0.0,0.0,0.0
1592874837095247047,1868,1592874837094961166,imu_link,0.00119833298973,0.00388371700783,0.88288315481,0.469575143819,0.0,0.0,0.0,0.0,0.0,0.0,0.0,0.0,0.0,0.00308890949612,0.00379124332625,0.00616665712244,0.0,0.0,0.0,0.0,0.0,0.0,0.0,0.0,0.0,0.0168642832898,-0.0721211928874,-9.80796163082,0.0,0.0,0.0,0.0,0.0,0.0,0.0,0.0,0.0
1592874837105096784,1869,1592874837104902196,imu_link,0.00120842960636,0.00389668916773,0.882895448126,0.469551896163,0.0,0.0,0.0,0.0,0.0,0.0,0.0,0.0,0.0,0.00430116975097,-0.00114425602088,0.00976934448393,0.0,0.0,0.0,0.0,0.0,0.0,0.0,0.0,0.0,0.0216564171016,-0.0673609121703,-9.80302460194,0.0,0.0,0.0,0.0,0.0,0.0,0.0,0.0,0.0
1592874837115132645,1870,1592874837114903210,imu_link,0.00118421206678,0.00390458532817,0.882902309906,0.469538989881,0.0,0.0,0.0,0.0,0.0,0.0,0.0,0.0,0.0,0.000642289886017,0.00377501026723,0.00738193085848,0.0,0.0,0.0,0.0,0.0,0.0,0.0,0.0,0.0,0.0288822391536,-0.0624383723363,-9.81023037434,0.0,0.0,0.0,0.0,0.0,0.0,0.0,0.0,0.0
1592874837125132686,1871,1592874837124905907,imu_link,0.00119524294375,0.00391426336031,0.882903051182,0.469537487481,0.0,0.0,0.0,0.0,0.0,0.0,0.0,0.0,0.0,0.00431377347281,-0.00230057350863,0.00486651437288,0.0,0.0,0.0,0.0,0.0,0.0,0.0,0.0,0.0,0.0289073337335,-0.062308486551,-9.81994905472,0.0,0.0,0.0,0.0,0.0,0.0,0.0,0.0,0.0
1592874837135527636,1872,1592874837135026718,imu_link,0.00118284580164,0.0039306844022,0.882915379514,0.46951419916,0.0,0.0,0.0,0.0,0.0,0.0,0.0,0.0,0.0,0.00307942354526,0.00252066374514,0.00981511236329,0.0,0.0,0.0,0.0,0.0,0.0,0.0,0.0,0.0,0.0289010612294,-0.0647536450997,-9.81755180359,0.0,0.0,0.0,0.0,0.0,0.0,0.0,0.0,0.0
1592874837145469528,1873,1592874837145267967,imu_link,0.00114398699201,0.00393501565936,0.882936503683,0.469474533292,0.0,0.0,0.0,0.0,0.0,0.0,0.0,0.0,0.0,-0.00181695217128,0.00613672984995,0.0135163059955,0.0,0.0,0.0,0.0,0.0,0.0,0.0,0.0,0.0,0.0288822391536,-0.067263746541,-9.81029462814,0.0,0.0,0.0,0.0,0.0,0.0,0.0,0.0,0.0
1592874837155252349,1874,1592874837154979863,imu_link,0.00118026791521,0.00393946099114,0.882939687716,0.46946841797,0.0,0.0,0.0,0.0,0.0,0.0,0.0,0.0,0.0,0.00553233012703,-0.00720340908124,0.00602592518464,0.0,0.0,0.0,0.0,0.0,0.0,0.0,0.0,0.0,0.0288759689312,-0.0648835263215,-9.80783312321,0.0,0.0,0.0,0.0,0.0,0.0,0.0,0.0,0.0
1592874837165512172,1875,1592874837164970638,imu_link,0.00118631494162,0.0039626997891,0.882935986257,0.469475168502,0.0,0.0,0.0,0.0,0.0,0.0,0.0,0.0,0.0,0.00676035686757,0.000158932995482,0.00368377827532,0.0,0.0,0.0,0.0,0.0,0.0,0.0,0.0,0.0,0.0264673592988,-0.0576778497547,-9.80531203747,0.0,0.0,0.0,0.0,0.0,0.0,0.0,0.0,0.0
1592874837175246362,1876,1592874837174937617,imu_link,0.00117290051831,0.00394968467173,0.882923913333,0.469498016567,0.0,0.0,0.0,0.0,0.0,0.0,0.0,0.0,0.0,-0.000560555613326,0.000208165487445,-1.66473917019e-08,0.0,0.0,0.0,0.0,0.0,0.0,0.0,0.0,0.0,0.0264736340847,-0.0479946002364,-9.80761349201,0.0,0.0,0.0,0.0,0.0,0.0,0.0,0.0,0.0
1592874837185348287,1877,1592874837184948089,imu_link,0.00118526679262,0.00393810866051,0.882917252616,0.46951060848,0.0,0.0,0.0,0.0,0.0,0.0,0.0,0.0,0.0,0.00187657915123,-0.00471104714408,0.00238420066727,0.0,0.0,0.0,0.0,0.0,0.0,0.0,0.0,0.0,0.0313034006394,-0.050277581811,-9.81735320091,0.0,0.0,0.0,0.0,0.0,0.0,0.0,0.0,0.0
1592874837195312210,1878,1592874837194969622,imu_link,0.00117021259382,0.00395488069092,0.882913821902,0.469516956686,0.0,0.0,0.0,0.0,0.0,0.0,0.0,0.0,0.0,0.00431686783711,0.00260227870873,0.00371005826551,0.0,0.0,0.0,0.0,0.0,0.0,0.0,0.0,0.0,0.0337057377677,-0.0502776593901,-9.81734735966,0.0,0.0,0.0,0.0,0.0,0.0,0.0,0.0,0.0
1592874837205091073,1879,1592874837204888861,imu_link,0.00118356403903,0.00394960684449,0.882912883809,0.469518731667,0.0,0.0,0.0,0.0,0.0,0.0,0.0,0.0,0.0,0.00309197473209,-0.00474372600292,0.0048305492149,0.0,0.0,0.0,0.0,0.0,0.0,0.0,0.0,0.0,0.0361143474001,-0.0502452814952,-9.81976914406,0.0,0.0,0.0,0.0,0.0,0.0,0.0,0.0,0.0
1592874837215222524,1880,1592874837215011645,imu_link,0.00121031256629,0.00394798364368,0.882900555139,0.469541860013,0.0,0.0,0.0,0.0,0.0,0.0,0.0,0.0,0.0,0.00432630957533,-0.00590008510256,-6.91124025391e-05,0.0,0.0,0.0,0.0,0.0,0.0,0.0,0.0,0.0,0.0264861813746,-0.0575804194435,-9.81260192394,0.0,0.0,0.0,0.0,0.0,0.0,0.0,0.0,0.0
1592874837225097881,1881,1592874837224888585,imu_link,0.00121054095726,0.00393413199214,0.882908498222,0.469527039652,0.0,0.0,0.0,0.0,0.0,0.0,0.0,0.0,0.0,-0.000582685207432,-0.00234932860167,0.00851854667597,0.0,0.0,0.0,0.0,0.0,0.0,0.0,0.0,0.0,0.0264924538787,-0.0599606442265,-9.81506342888,0.0,0.0,0.0,0.0,0.0,0.0,0.0,0.0,0.0
1592874837235337225,1882,1592874837234975721,imu_link,0.00122099279303,0.00391629778172,0.882923028316,0.469499837975,0.0,0.0,0.0,0.0,0.0,0.0,0.0,0.0,0.0,-0.000585846150754,-0.00480888658425,0.00970749985022,0.0,0.0,0.0,0.0,0.0,0.0,0.0,0.0,0.0,0.0288947887253,-0.0623734203167,-9.8150891304,0.0,0.0,0.0,0.0,0.0,0.0,0.0,0.0,0.0
1592874837245333891,1883,1592874837244899739,imu_link,0.00117195018682,0.00390408573863,0.882923689041,0.469498822126,0.0,0.0,0.0,0.0,0.0,0.0,0.0,0.0,0.0,-0.00545698243447,0.00626751134416,0.00373371228526,0.0,0.0,0.0,0.0,0.0,0.0,0.0,0.0,0.0,0.0289136108011,-0.0646886930801,-9.82241172791,0.0,0.0,0.0,0.0,0.0,0.0,0.0,0.0,0.0
1592874837255150796,1884,1592874837254906644,imu_link,0.00116755334097,0.00387099943844,0.882938281923,0.469471663147,0.0,0.0,0.0,0.0,0.0,0.0,0.0,0.0,0.0,-0.00547275594216,-0.00358708420248,0.00971118042204,0.0,0.0,0.0,0.0,0.0,0.0,0.0,0.0,0.0,0.0289261558093,-0.0694491380826,-9.82733590603,0.0,0.0,0.0,0.0,0.0,0.0,0.0,0.0,0.0
1592874837265190083,1885,1592874837264974385,imu_link,0.00118127152801,0.0038723266007,0.882952753558,0.469444399975,0.0,0.0,0.0,0.0,0.0,0.0,0.0,0.0,0.0,0.00185759788684,-0.00358733205331,0.00973008990592,0.0,0.0,0.0,0.0,0.0,0.0,0.0,0.0,0.0,0.0289324305952,-0.0742420339957,-9.82983012199,0.0,0.0,0.0,0.0,0.0,0.0,0.0,0.0,0.0
1592874837275311835,1886,1592874837275011497,imu_link,0.00117006204976,0.0038744981997,0.8829559892,0.469438324334,0.0,0.0,0.0,0.0,0.0,0.0,0.0,0.0,0.0,-0.000573240218281,0.00136454079297,0.00490260124564,0.0,0.0,0.0,0.0,0.0,0.0,0.0,0.0,0.0,0.0241089388262,-0.0767519939691,-9.82258579731,0.0,0.0,0.0,0.0,0.0,0.0,0.0,0.0,0.0
1592874837285039712,1887,1592874837284879960,imu_link,0.00115983879709,0.00386247641076,0.882964885254,0.469421716006,0.0,0.0,0.0,0.0,0.0,0.0,0.0,0.0,0.0,-0.00302300354178,0.000110354273475,0.00732318579055,0.0,0.0,0.0,0.0,0.0,0.0,0.0,0.0,0.0,0.0216940566897,-0.0768168684095,-9.8177328825,0.0,0.0,0.0,0.0,0.0,0.0,0.0,0.0,0.0
1592874837295275550,1888,1592874837294977076,imu_link,0.00113970570181,0.00388625926001,0.882963859796,0.469423497871,0.0,0.0,0.0,0.0,0.0,0.0,0.0,0.0,0.0,0.00309509146278,0.00504561351511,0.00373938944766,0.0,0.0,0.0,0.0,0.0,0.0,0.0,0.0,0.0,0.0241026617587,-0.069546390418,-9.82005887032,0.0,0.0,0.0,0.0,0.0,0.0,0.0,0.0,0.0
1592874837305522560,1889,1592874837305213024,imu_link,0.00111497295525,0.00390557937584,0.882965602226,0.469420119478,0.0,0.0,0.0,0.0,0.0,0.0,0.0,0.0,0.0,0.00187020707025,0.00502933546324,0.00495783635051,0.0,0.0,0.0,0.0,0.0,0.0,0.0,0.0,0.0,0.0289010612294,-0.0695790238678,-9.81761722565,0.0,0.0,0.0,0.0,0.0,0.0,0.0,0.0,0.0
1592874837315214028,1890,1592874837314968733,imu_link,0.00113641417345,0.00389092113005,0.882955460343,0.469439265877,0.0,0.0,0.0,0.0,0.0,0.0,0.0,0.0,0.0,0.00066109143905,-0.00589991501396,-7.87321453805e-05,0.0,0.0,0.0,0.0,0.0,0.0,0.0,0.0,0.0,0.0240712946746,-0.0648833620362,-9.80784597397,0.0,0.0,0.0,0.0,0.0,0.0,0.0,0.0,0.0
1592874837325195815,1891,1592874837324997490,imu_link,0.00113208246751,0.00386949369131,0.882945649626,0.46945790569,0.0,0.0,0.0,0.0,0.0,0.0,0.0,0.0,0.0,-0.00300409587842,-0.00223492320736,-3.92342922181e-05,0.0,0.0,0.0,0.0,0.0,0.0,0.0,0.0,0.0,0.0264673592988,-0.0649159361608,-9.80541017056,0.0,0.0,0.0,0.0,0.0,0.0,0.0,0.0,0.0
1592874837335437905,1892,1592874837334977464,imu_link,0.00116484424308,0.00385725799034,0.882952659573,0.469444741851,0.0,0.0,0.0,0.0,0.0,0.0,0.0,0.0,0.0,0.00186388427334,-0.00844114439626,0.00722143847361,0.0,0.0,0.0,0.0,0.0,0.0,0.0,0.0,0.0,0.0312783083413,-0.0672963069752,-9.80785882473,0.0,0.0,0.0,0.0,0.0,0.0,0.0,0.0,0.0
1592874837345381080,1893,1592874837344947419,imu_link,0.00116264086537,0.00384723822698,0.88295426743,0.469441805394,0.0,0.0,0.0,0.0,0.0,0.0,0.0,0.0,0.0,-0.000573267721141,-0.00230029548918,0.00485350857614,0.0,0.0,0.0,0.0,0.0,0.0,0.0,0.0,0.0,0.0336931904778,-0.0624060537666,-9.81264748573,0.0,0.0,0.0,0.0,0.0,0.0,0.0,0.0,0.0
1592874837355317371,1894,1592874837354974592,imu_link,0.00117216105794,0.00382421081893,0.882947219237,0.46945522629,0.0,0.0,0.0,0.0,0.0,0.0,0.0,0.0,0.0,-0.00178553857402,-0.00469451109848,0.00115283444239,0.0,0.0,0.0,0.0,0.0,0.0,0.0,0.0,0.0,0.0240712946746,-0.0624706726521,-9.80781326294,0.0,0.0,0.0,0.0,0.0,0.0,0.0,0.0,0.0
1592874837365135499,1895,1592874837364895845,imu_link,0.00120923908728,0.00380725568092,0.882941591611,0.469465854294,0.0,0.0,0.0,0.0,0.0,0.0,0.0,0.0,0.0,0.00187963775531,-0.00835950498568,0.00111330535592,0.0,0.0,0.0,0.0,0.0,0.0,0.0,0.0,0.0,0.0168454634957,-0.0625678337179,-9.80054323673,0.0,0.0,0.0,0.0,0.0,0.0,0.0,0.0,0.0
1592874837375152153,1896,1592874837374922929,imu_link,0.0012238568529,0.00381040824121,0.882941927006,0.469465160048,0.0,0.0,0.0,0.0,0.0,0.0,0.0,0.0,0.0,0.00309505193148,-0.00228409129841,0.00364130631786,0.0,0.0,0.0,0.0,0.0,0.0,0.0,0.0,0.0,0.0144243065733,-0.065077866707,-9.79329073429,0.0,0.0,0.0,0.0,0.0,0.0,0.0,0.0,0.0
1592874837385274286,1897,1592874837384973076,imu_link,0.00120895473976,0.00380987655579,0.882942486083,0.469464151495,0.0,0.0,0.0,0.0,0.0,0.0,0.0,0.0,0.0,-0.0005701333054,0.00260252603941,0.00369713257166,0.0,0.0,0.0,0.0,0.0,0.0,0.0,0.0,0.0,0.0144305802183,-0.0674580869265,-9.79575340748,0.0,0.0,0.0,0.0,0.0,0.0,0.0,0.0,0.0
1592874837395449729,1898,1592874837395017481,imu_link,0.00127056228966,0.00380431176661,0.882931001014,0.469485633787,0.0,0.0,0.0,0.0,0.0,0.0,0.0,0.0,0.0,0.00555111581553,-0.0119918470618,-0.00136948623626,0.0,0.0,0.0,0.0,0.0,0.0,0.0,0.0,0.0,0.0192666204181,-0.069708576519,-9.80792307854,0.0,0.0,0.0,0.0,0.0,0.0,0.0,0.0,0.0
1592874837405133233,1899,1592874837404917024,imu_link,0.00125834614161,0.00379655147559,0.882931531529,0.4694847318,0.0,0.0,0.0,0.0,0.0,0.0,0.0,0.0,0.0,-0.00179186735264,0.000159330665376,0.00366130005159,0.0,0.0,0.0,0.0,0.0,0.0,0.0,0.0,0.0,0.0264987286646,-0.0695789462887,-9.8176230669,0.0,0.0,0.0,0.0,0.0,0.0,0.0,0.0,0.0
1592874837415328895,1900,1592874837414914962,imu_link,0.00121047521687,0.00376544102945,0.882929433401,0.469489054013,0.0,0.0,0.0,0.0,0.0,0.0,0.0,0.0,0.0,-0.00911907233177,0.00384078462397,0.0024697209069,0.0,0.0,0.0,0.0,0.0,0.0,0.0,0.0,0.0,0.0313222227152,-0.0670690045692,-9.82486739159,0.0,0.0,0.0,0.0,0.0,0.0,0.0,0.0,0.0
1592874837425111495,1901,1592874837424911236,imu_link,0.00118967692168,0.00376418171526,0.882930087232,0.469487887667,0.0,0.0,0.0,0.0,0.0,0.0,0.0,0.0,0.0,-0.00179187294424,0.0026025868968,0.00369392273437,0.0,0.0,0.0,0.0,0.0,0.0,0.0,0.0,0.0,0.0240963892546,-0.0719915626571,-9.81766161919,0.0,0.0,0.0,0.0,0.0,0.0,0.0,0.0,0.0
1592874837435229821,1902,1592874837434961413,imu_link,0.00115433675066,0.00380222257152,0.882926994139,0.46949348625,0.0,0.0,0.0,0.0,0.0,0.0,0.0,0.0,0.0,0.00309503710724,0.00871053510165,0.00378814506084,0.0,0.0,0.0,0.0,0.0,0.0,0.0,0.0,0.0,0.0264799065888,-0.0793271204457,-9.81046168804,0.0,0.0,0.0,0.0,0.0,0.0,0.0,0.0,0.0
1592874837445377743,1903,1592874837444952068,imu_link,0.00115969289299,0.00383351299162,0.882923540509,0.469499713424,0.0,0.0,0.0,0.0,0.0,0.0,0.0,0.0,0.0,0.00553849336833,0.00138071780598,0.00369647926496,0.0,0.0,0.0,0.0,0.0,0.0,0.0,0.0,0.0,0.021650140034,-0.0818695450202,-9.80078856945,0.0,0.0,0.0,0.0,0.0,0.0,0.0,0.0,0.0
1592874837455277806,1904,1592874837454957199,imu_link,0.00116061050263,0.00383393872754,0.882908596569,0.469527809615,0.0,0.0,0.0,0.0,0.0,0.0,0.0,0.0,0.0,-0.000557523211739,-0.000997003174553,-0.00123843062372,0.0,0.0,0.0,0.0,0.0,0.0,0.0,0.0,0.0,0.0240587519482,-0.0842498382553,-9.80324423313,0.0,0.0,0.0,0.0,0.0,0.0,0.0,0.0,0.0
1592874837465379891,1905,1592874837464920602,imu_link,0.00114756898712,0.00382108119464,0.882925342513,0.46949645576,0.0,0.0,0.0,0.0,0.0,0.0,0.0,0.0,0.0,-0.00425739065996,4.51640233552e-05,0.0122062034397,0.0,0.0,0.0,0.0,0.0,0.0,0.0,0.0,0.0,0.0264673592988,-0.0842174740508,-9.80566718578,0.0,0.0,0.0,0.0,0.0,0.0,0.0,0.0,0.0
1592874837475266068,1906,1592874837474964487,imu_link,0.00115998937713,0.00379911809882,0.882944577487,0.469460428804,0.0,0.0,0.0,0.0,0.0,0.0,0.0,0.0,0.0,-0.00303882360277,-0.00485768432947,0.0133656501417,0.0,0.0,0.0,0.0,0.0,0.0,0.0,0.0,0.0,0.0216438675299,-0.0794893065467,-9.79832589626,0.0,0.0,0.0,0.0,0.0,0.0,0.0,0.0,0.0
1592874837485098944,1907,1592874837484910096,imu_link,0.00115486073607,0.00378402951688,0.882952551321,0.469445566103,0.0,0.0,0.0,0.0,0.0,0.0,0.0,0.0,0.0,-0.00302620739737,-0.00112751126563,0.00852813665656,0.0,0.0,0.0,0.0,0.0,0.0,0.0,0.0,0.0,0.021650140034,-0.074631458614,-9.80069277287,0.0,0.0,0.0,0.0,0.0,0.0,0.0,0.0,0.0
1592874837495221197,1908,1592874837494945946,imu_link,0.00118657155883,0.00378098785203,0.882971205871,0.469410423598,0.0,0.0,0.0,0.0,0.0,0.0,0.0,0.0,0.0,0.00307296355915,-0.00606318863363,0.0121434412637,0.0,0.0,0.0,0.0,0.0,0.0,0.0,0.0,0.0,0.0168642832898,-0.0697084852494,-9.80792891979,0.0,0.0,0.0,0.0,0.0,0.0,0.0,0.0,0.0
1592874837505339653,1909,1592874837505139103,imu_link,0.00123284705966,0.00380853936016,0.882986882521,0.469380592284,0.0,0.0,0.0,0.0,0.0,0.0,0.0,0.0,0.0,0.010406476641,-0.00604711395988,0.0109407254765,0.0,0.0,0.0,0.0,0.0,0.0,0.0,0.0,0.0,0.0192854424939,-0.0647857811302,-9.8151463747,0.0,0.0,0.0,0.0,0.0,0.0,0.0,0.0,0.0
1592874837515183680,1910,1592874837514932915,imu_link,0.00125248126784,0.00382110484849,0.882985551948,0.469382941211,0.0,0.0,0.0,0.0,0.0,0.0,0.0,0.0,0.0,0.00553848608625,-0.00350574205685,0.00363104326492,0.0,0.0,0.0,0.0,0.0,0.0,0.0,0.0,0.0,0.0265175507404,-0.0622434660792,-9.82481598854,0.0,0.0,0.0,0.0,0.0,0.0,0.0,0.0,0.0
1592874837525093842,1911,1592874837524884536,imu_link,0.00125564025166,0.00383267126035,0.882995657209,0.469363828334,0.0,0.0,0.0,0.0,0.0,0.0,0.0,0.0,0.0,0.00430413381803,-0.00112774923364,0.00854699204497,0.0,0.0,0.0,0.0,0.0,0.0,0.0,0.0,0.0,0.0313410402276,-0.0573208349757,-9.83202643394,0.0,0.0,0.0,0.0,0.0,0.0,0.0,0.0,0.0
1592874837535355529,1912,1592874837534977183,imu_link,0.00120915664726,0.00384046378808,0.883011946528,0.469333240957,0.0,0.0,0.0,0.0,0.0,0.0,0.0,0.0,0.0,-0.000589092723547,0.00739112760669,0.0110918713103,0.0,0.0,0.0,0.0,0.0,0.0,0.0,0.0,0.0,0.0313347700052,-0.0525279071182,-9.82953455448,0.0,0.0,0.0,0.0,0.0,0.0,0.0,0.0,0.0
1592874837545226196,1913,1592874837545008344,imu_link,0.00117700372938,0.00383665651619,0.883016543916,0.469324704123,0.0,0.0,0.0,0.0,0.0,0.0,0.0,0.0,0.0,-0.00179821160567,0.00379160873068,0.00615325393213,0.0,0.0,0.0,0.0,0.0,0.0,0.0,0.0,0.0,0.0313222227152,-0.0574182333425,-9.82473888397,0.0,0.0,0.0,0.0,0.0,0.0,0.0,0.0,0.0
1592874837555553848,1914,1592874837555024587,imu_link,0.00116064407311,0.00383962183809,0.883015304646,0.469327052246,0.0,0.0,0.0,0.0,0.0,0.0,0.0,0.0,0.0,0.000651543980615,0.00260255490766,0.00369998636721,0.0,0.0,0.0,0.0,0.0,0.0,0.0,0.0,0.0,0.0217003269121,-0.0598955461755,-9.81993620396,0.0,0.0,0.0,0.0,0.0,0.0,0.0,0.0,0.0
1592874837565365103,1915,1592874837565181586,imu_link,0.00114084036546,0.00383496360019,0.883020223138,0.469317884878,0.0,0.0,0.0,0.0,0.0,0.0,0.0,0.0,0.0,-0.000579654236254,0.00255362452453,0.00736166222619,0.0,0.0,0.0,0.0,0.0,0.0,0.0,0.0,0.0,0.0217003269121,-0.0550701674074,-9.81987195015,0.0,0.0,0.0,0.0,0.0,0.0,0.0,0.0,0.0
1592874837575276818,1916,1592874837574985376,imu_link,0.00117542942296,0.00383975894727,0.883024715805,0.469309307274,0.0,0.0,0.0,0.0,0.0,0.0,0.0,0.0,0.0,0.00552897568841,-0.00599793702629,0.00726313202863,0.0,0.0,0.0,0.0,0.0,0.0,0.0,0.0,0.0,0.0192854424939,-0.0623730917461,-9.81511483192,0.0,0.0,0.0,0.0,0.0,0.0,0.0,0.0,0.0
1592874837585263394,1917,1592874837585040492,imu_link,0.00117281639981,0.00385994817447,0.883003842161,0.469348420718,0.0,0.0,0.0,0.0,0.0,0.0,0.0,0.0,0.0,0.00433563167936,0.00270038472507,-0.00362031962036,0.0,0.0,0.0,0.0,0.0,0.0,0.0,0.0,0.0,0.0120658861008,-0.067263166979,-9.81033785343,0.0,0.0,0.0,0.0,0.0,0.0,0.0,0.0,0.0
1592874837595351543,1918,1592874837594977295,imu_link,0.00114981548846,0.0038796427358,0.882991772296,0.469371022064,0.0,0.0,0.0,0.0,0.0,0.0,0.0,0.0,0.0,0.00188271235396,0.0063163585035,8.71805215984e-05,0.0,0.0,0.0,0.0,0.0,0.0,0.0,0.0,0.0,0.0120721620275,-0.0720560765825,-9.81283323765,0.0,0.0,0.0,0.0,0.0,0.0,0.0,0.0,0.0
1592874837605174841,1919,1592874837604908667,imu_link,0.00120044266953,0.00387258865357,0.882973294667,0.469405712469,0.0,0.0,0.0,0.0,0.0,0.0,0.0,0.0,0.0,0.00433247151627,-0.00953216294315,-0.00256199995803,0.0,0.0,0.0,0.0,0.0,0.0,0.0,0.0,0.0,0.014474496874,-0.0696434647776,-9.81279468536,0.0,0.0,0.0,0.0,0.0,0.0,0.0,0.0,0.0
1592874837615078200,1920,1592874837614911174,imu_link,0.00119222439333,0.00386115136552,0.882958310678,0.4694340121,0.0,0.0,0.0,0.0,0.0,0.0,0.0,0.0,0.0,-0.00177932292774,0.000224698330884,-0.00122556877811,0.0,0.0,0.0,0.0,0.0,0.0,0.0,0.0,0.0,0.0168580096448,-0.0673282787204,-9.8054662466,0.0,0.0,0.0,0.0,0.0,0.0,0.0,0.0,0.0
1592874837625133015,1921,1592874837624903611,imu_link,0.00125078187367,0.00387043501538,0.882965730673,0.469419826739,0.0,0.0,0.0,0.0,0.0,0.0,0.0,0.0,0.0,0.00796925826254,-0.00967921624745,0.00844197507365,0.0,0.0,0.0,0.0,0.0,0.0,0.0,0.0,0.0,0.0168517394224,-0.0697734190151,-9.80306899548,0.0,0.0,0.0,0.0,0.0,0.0,0.0,0.0,0.0
1592874837635207769,1922,1592874837634920285,imu_link,0.00130309415095,0.00388392604984,0.88297894026,0.46939472528,0.0,0.0,0.0,0.0,0.0,0.0,0.0,0.0,0.0,0.00796294781917,-0.0084902417471,0.0109015125104,0.0,0.0,0.0,0.0,0.0,0.0,0.0,0.0,0.0,0.0192666204181,-0.0721212795936,-9.80795462132,0.0,0.0,0.0,0.0,0.0,0.0,0.0,0.0,0.0
1592874837645361291,1923,1592874837645178936,imu_link,0.00130847150017,0.00390270463504,0.882992418871,0.469369199048,0.0,0.0,0.0,0.0,0.0,0.0,0.0,0.0,0.0,0.00429776407771,6.12400462463e-05,0.0110063068581,0.0,0.0,0.0,0.0,0.0,0.0,0.0,0.0,0.0,0.0216815093998,-0.0744690945372,-9.81284024715,0.0,0.0,0.0,0.0,0.0,0.0,0.0,0.0,0.0
1592874837655243620,1924,1592874837654950075,imu_link,0.00132496889458,0.00391397484525,0.883005779102,0.469343924357,0.0,0.0,0.0,0.0,0.0,0.0,0.0,0.0,0.0,0.00429776069675,-0.00238200329931,0.0109736352813,0.0,0.0,0.0,0.0,0.0,0.0,0.0,0.0,0.0,0.0192917172797,-0.0719913983718,-9.8176733017,0.0,0.0,0.0,0.0,0.0,0.0,0.0,0.0,0.0
1592874837665281935,1925,1592874837665148753,imu_link,0.00132316242759,0.00392664619691,0.883024968262,0.469307720069,0.0,0.0,0.0,0.0,0.0,0.0,0.0,0.0,0.0,0.00306972095249,0.00125025815374,0.013462671388,0.0,0.0,0.0,0.0,0.0,0.0,0.0,0.0,0.0,0.0168705557939,-0.0696760206483,-9.8103577137,0.0,0.0,0.0,0.0,0.0,0.0,0.0,0.0,0.0
1592874837675281547,1926,1592874837675002729,imu_link,0.00130435599389,0.00394834660057,0.883044231941,0.469271343309,0.0,0.0,0.0,0.0,0.0,0.0,0.0,0.0,0.0,0.0030697167913,0.00491512954593,0.0135116277786,0.0,0.0,0.0,0.0,0.0,0.0,0.0,0.0,0.0,0.0192540776916,-0.0697735102847,-9.80306315422,0.0,0.0,0.0,0.0,0.0,0.0,0.0,0.0,0.0
1592874837685139189,1927,1592874837684921016,imu_link,0.00129370706234,0.00395740573516,0.883051902447,0.469256862334,0.0,0.0,0.0,0.0,0.0,0.0,0.0,0.0,0.0,0.00186060109509,0.00253722709854,0.00858933214476,0.0,0.0,0.0,0.0,0.0,0.0,0.0,0.0,0.0,0.0168642832898,-0.0672957958654,-9.80789620876,0.0,0.0,0.0,0.0,0.0,0.0,0.0,0.0,0.0
1592874837695217148,1928,1592874837694977084,imu_link,0.00125061516123,0.00397409067562,0.883067864548,0.469226799286,0.0,0.0,0.0,0.0,0.0,0.0,0.0,0.0,0.0,0.000632558945148,0.00861273207189,0.0111110200626,0.0,0.0,0.0,0.0,0.0,0.0,0.0,0.0,0.0,0.0217003269121,-0.0623082492501,-9.81996774673,0.0,0.0,0.0,0.0,0.0,0.0,0.0,0.0,0.0
1592874837705315918,1929,1592874837705158279,imu_link,0.0012238659607,0.00394922556124,0.883072094093,0.469219119819,0.0,0.0,0.0,0.0,0.0,0.0,0.0,0.0,0.0,-0.00546345880526,0.00134851592345,0.00611081240336,0.0,0.0,0.0,0.0,0.0,0.0,0.0,0.0,0.0,0.0265238232445,-0.0646236862987,-9.82727866173,0.0,0.0,0.0,0.0,0.0,0.0,0.0,0.0,0.0
1592874837715379620,1930,1592874837714981717,imu_link,0.00116002013645,0.0039569061775,0.88305087839,0.469259143141,0.0,0.0,0.0,0.0,0.0,0.0,0.0,0.0,0.0,-0.00299163207657,0.0112683379803,-0.00474684845524,0.0,0.0,0.0,0.0,0.0,0.0,0.0,0.0,0.0,0.0241214838345,-0.062210905645,-9.82725179195,0.0,0.0,0.0,0.0,0.0,0.0,0.0,0.0,0.0
1592874837725307575,1931,1592874837725123527,imu_link,0.00112601482241,0.0039683455261,0.883023843553,0.469309999938,0.0,0.0,0.0,0.0,0.0,0.0,0.0,0.0,0.0,0.000679851055097,0.00641438103599,-0.00724593955543,0.0,0.0,0.0,0.0,0.0,0.0,0.0,0.0,0.0,0.0240963892546,-0.0599280883558,-9.81750040054,0.0,0.0,0.0,0.0,0.0,0.0,0.0,0.0,0.0
1592874837735167632,1932,1592874837734971661,imu_link,0.00114740402917,0.00399165652553,0.88298211877,0.469388248761,0.0,0.0,0.0,0.0,0.0,0.0,0.0,0.0,0.0,0.00802597683134,-0.00205560170158,-0.0134493992752,0.0,0.0,0.0,0.0,0.0,0.0,0.0,0.0,0.0,0.0216689621098,-0.0600578965619,-9.80778756142,0.0,0.0,0.0,0.0,0.0,0.0,0.0,0.0,0.0
1592874837745056094,1933,1592874837744909066,imu_link,0.00114059594786,0.00399649870858,0.882963590514,0.469423076622,0.0,0.0,0.0,0.0,0.0,0.0,0.0,0.0,0.0,0.00189210051687,0.00147887453681,-0.00364327013907,0.0,0.0,0.0,0.0,0.0,0.0,0.0,0.0,0.0,0.0192791699897,-0.0624055609107,-9.81268486977,0.0,0.0,0.0,0.0,0.0,0.0,0.0,0.0,0.0
1592874837755360512,1934,1592874837755125988,imu_link,0.00114440308031,0.00398024188367,0.882976483861,0.469398952881,0.0,0.0,0.0,0.0,0.0,0.0,0.0,0.0,0.0,-0.00180777947994,-0.00236544514739,0.00973606433326,0.0,0.0,0.0,0.0,0.0,0.0,0.0,0.0,0.0,0.0192791699897,-0.0720563321374,-9.81281454563,0.0,0.0,0.0,0.0,0.0,0.0,0.0,0.0,0.0
1592874837765374410,1935,1592874837764952331,imu_link,0.00117455541963,0.00398579619066,0.882978096805,0.469395797181,0.0,0.0,0.0,0.0,0.0,0.0,0.0,0.0,0.0,0.00431031682499,-0.00598153569919,0.00603798223025,0.0,0.0,0.0,0.0,0.0,0.0,0.0,0.0,0.0,0.0289010612294,-0.0744043980725,-9.81768147945,0.0,0.0,0.0,0.0,0.0,0.0,0.0,0.0,0.0
1592874837775183952,1936,1592874837774935822,imu_link,0.00112793809375,0.00399642358725,0.882983149061,0.469386317258,0.0,0.0,0.0,0.0,0.0,0.0,0.0,0.0,0.0,-0.0018014768388,0.00744020103069,0.00742338930631,0.0,0.0,0.0,0.0,0.0,0.0,0.0,0.0,0.0,0.0361143474001,-0.0719595133327,-9.82006003857,0.0,0.0,0.0,0.0,0.0,0.0,0.0,0.0,0.0
1592874837785400744,1937,1592874837784924633,imu_link,0.00112459031319,0.00398981048408,0.882982053983,0.469388441541,0.0,0.0,0.0,0.0,0.0,0.0,0.0,0.0,0.0,-0.000573444636699,-0.00230016415165,0.00485268518083,0.0,0.0,0.0,0.0,0.0,0.0,0.0,0.0,0.0,0.040919019375,-0.0695469745435,-9.82001564503,0.0,0.0,0.0,0.0,0.0,0.0,0.0,0.0,0.0
1592874837795352434,1938,1592874837794979448,imu_link,0.00118992604018,0.00398917832046,0.882977681534,0.4693965109,0.0,0.0,0.0,0.0,0.0,0.0,0.0,0.0,0.0,0.00676006922536,-0.0132786812881,0.00350303988463,0.0,0.0,0.0,0.0,0.0,0.0,0.0,0.0,0.0,0.0336994652636,-0.0720243558288,-9.81520712376,0.0,0.0,0.0,0.0,0.0,0.0,0.0,0.0,0.0
1592874837805716875,1939,1592874837804956887,imu_link,0.00120472092261,0.00399051506916,0.882967993468,0.469414685484,0.0,0.0,0.0,0.0,0.0,0.0,0.0,0.0,0.0,0.00310118994558,-0.00347291807654,0.00118092598027,0.0,0.0,0.0,0.0,0.0,0.0,0.0,0.0,0.0,0.0264987286646,-0.0647535675205,-9.8175588131,0.0,0.0,0.0,0.0,0.0,0.0,0.0,0.0,0.0
1592874837815393436,1940,1592874837815150596,imu_link,0.00119150989098,0.00396836544464,0.882952871642,0.469443349979,0.0,0.0,0.0,0.0,0.0,0.0,0.0,0.0,0.0,-0.00300114689568,0.000224804961357,-0.00122912282377,0.0,0.0,0.0,0.0,0.0,0.0,0.0,0.0,0.0,0.0168893778697,-0.0575151434168,-9.81748638153,0.0,0.0,0.0,0.0,0.0,0.0,0.0,0.0,0.0
1592874837825431279,1941,1592874837825243925,imu_link,0.00118020197405,0.00397148340901,0.882961696873,0.469426752857,0.0,0.0,0.0,0.0,0.0,0.0,0.0,0.0,0.0,0.00186367335307,0.00255360319844,0.00736744835973,0.0,0.0,0.0,0.0,0.0,0.0,0.0,0.0,0.0,0.0144807693781,-0.0551348456182,-9.81503071785,0.0,0.0,0.0,0.0,0.0,0.0,0.0,0.0,0.0
1592874837835529407,1942,1592874837834991489,imu_link,0.00116951882598,0.00396060890946,0.882964837632,0.469420963857,0.0,0.0,0.0,0.0,0.0,0.0,0.0,0.0,0.0,-0.000573482347476,0.00136471257206,0.00490156771028,0.0,0.0,0.0,0.0,0.0,0.0,0.0,0.0,0.0,0.0120721620275,-0.0551672235131,-9.8126077652,0.0,0.0,0.0,0.0,0.0,0.0,0.0,0.0,0.0
1592874837845195687,1943,1592874837844950193,imu_link,0.00117746554655,0.00396331855896,0.88294488757,0.469458444587,0.0,0.0,0.0,0.0,0.0,0.0,0.0,0.0,0.0,0.00311692444212,-0.000948049124662,-0.00489457483189,0.0,0.0,0.0,0.0,0.0,0.0,0.0,0.0,0.0,0.0144682209473,-0.0600251718424,-9.81023621559,0.0,0.0,0.0,0.0,0.0,0.0,0.0,0.0,0.0
1592874837855407500,1944,1592874837854968539,imu_link,0.00114393132681,0.00396187315302,0.882939690103,0.469468314824,0.0,0.0,0.0,0.0,0.0,0.0,0.0,0.0,0.0,-0.00178576171779,0.00630021985146,0.00129883444568,0.0,0.0,0.0,0.0,0.0,0.0,0.0,0.0,0.0,0.0120533399517,-0.0625027356669,-9.80541484356,0.0,0.0,0.0,0.0,0.0,0.0,0.0,0.0,0.0
1592874837865404907,1945,1592874837864994390,imu_link,0.0011159793426,0.00394530201404,0.882925751485,0.469494735376,0.0,0.0,0.0,0.0,0.0,0.0,0.0,0.0,0.0,-0.00421975166364,0.00390603337049,-0.00240499126872,0.0,0.0,0.0,0.0,0.0,0.0,0.0,0.0,0.0,0.0120470697293,-0.0649478805251,-9.80301759243,0.0,0.0,0.0,0.0,0.0,0.0,0.0,0.0,0.0
1592874837875505640,1946,1592874837875021804,imu_link,0.00111171603532,0.00394799665239,0.882931769582,0.469483405109,0.0,0.0,0.0,0.0,0.0,0.0,0.0,0.0,0.0,0.00186679073394,0.00134829759106,0.00612943216444,0.0,0.0,0.0,0.0,0.0,0.0,0.0,0.0,0.0,0.0144556747982,-0.060090123862,-9.80537629128,0.0,0.0,0.0,0.0,0.0,0.0,0.0,0.0,0.0
1592874837885360367,1947,1592874837885163634,imu_link,0.00108068329528,0.00395112128646,0.882946524104,0.469455702209,0.0,0.0,0.0,0.0,0.0,0.0,0.0,0.0,0.0,-0.000586133467862,0.00618589586041,0.00985326526647,0.0,0.0,0.0,0.0,0.0,0.0,0.0,0.0,0.0,0.0144682209473,-0.0600251718424,-9.81023621559,0.0,0.0,0.0,0.0,0.0,0.0,0.0,0.0,0.0
1592874837895251182,1948,1592874837894953038,imu_link,0.0010726685807,0.00396825088102,0.882961034891,0.469428283374,0.0,0.0,0.0,0.0,0.0,0.0,0.0,0.0,0.0,0.00430076663577,0.0025208616617,0.00981689023136,0.0,0.0,0.0,0.0,0.0,0.0,0.0,0.0,0.0,0.0241026617587,-0.0574829298072,-9.81989765167,0.0,0.0,0.0,0.0,0.0,0.0,0.0,0.0,0.0
1592874837905397120,1949,1592874837905141326,imu_link,0.00106208532915,0.00400040307802,0.882978346131,0.469395471873,0.0,0.0,0.0,0.0,0.0,0.0,0.0,0.0,0.0,0.00674105883265,0.00372607910388,0.0110611232433,0.0,0.0,0.0,0.0,0.0,0.0,0.0,0.0,0.0,0.0313096754253,-0.0574831853621,-9.81987895966,0.0,0.0,0.0,0.0,0.0,0.0,0.0,0.0,0.0
1592874837915607370,1950,1592874837914988178,imu_link,0.00108641450901,0.004008239291,0.882986665339,0.469379699769,0.0,0.0,0.0,0.0,0.0,0.0,0.0,0.0,0.0,0.0055287863543,-0.00477624881716,0.00727882543342,0.0,0.0,0.0,0.0,0.0,0.0,0.0,0.0,0.0,0.0313096754253,-0.0598958747461,-9.81991050243,0.0,0.0,0.0,0.0,0.0,0.0,0.0,0.0,0.0
1592874837925350235,1951,1592874837925144616,imu_link,0.0010896877521,0.00399805375562,0.882992247402,0.469369278047,0.0,0.0,0.0,0.0,0.0,0.0,0.0,0.0,0.0,-0.000576699141759,-0.00231647159192,0.0060740743045,0.0,0.0,0.0,0.0,0.0,0.0,0.0,0.0,0.0,0.0264924538787,-0.0696114154533,-9.81519310474,0.0,0.0,0.0,0.0,0.0,0.0,0.0,0.0,0.0
1592874837935352312,1952,1592874837934983043,imu_link,0.00108169041155,0.0039950782082,0.883003788796,0.469347609207,0.0,0.0,0.0,0.0,0.0,0.0,0.0,0.0,0.0,-0.000583010235318,0.00131574499831,0.00856627135454,0.0,0.0,0.0,0.0,0.0,0.0,0.0,0.0,0.0,0.0168893778697,-0.0719913071021,-9.8176803112,0.0,0.0,0.0,0.0,0.0,0.0,0.0,0.0,0.0
1592874837945503670,1953,1592874837944929193,imu_link,0.00108035840117,0.00398162833902,0.88301516448,0.469326324383,0.0,0.0,0.0,0.0,0.0,0.0,0.0,0.0,0.0,-0.00180474064151,9.41609001729e-05,0.00854677722358,0.0,0.0,0.0,0.0,0.0,0.0,0.0,0.0,0.0,0.00728630357189,-0.0719585139304,-9.82013480663,0.0,0.0,0.0,0.0,0.0,0.0,0.0,0.0,0.0
1592874837955311328,1954,1592874837955006220,imu_link,0.00109506183719,0.00399017490981,0.883029285914,0.469299647945,0.0,0.0,0.0,0.0,0.0,0.0,0.0,0.0,0.0,0.004300735947,-0.00114399334581,0.00976782356929,0.0,0.0,0.0,0.0,0.0,0.0,0.0,0.0,0.0,0.0120909806807,-0.0647205963731,-9.82002499104,0.0,0.0,0.0,0.0,0.0,0.0,0.0,0.0,0.0
1592874837965447307,1955,1592874837964987206,imu_link,0.00110082746066,0.00397900785309,0.883040965439,0.469277752543,0.0,0.0,0.0,0.0,0.0,0.0,0.0,0.0,0.0,0.000635545703692,-0.00236549508166,0.00974201691437,0.0,0.0,0.0,0.0,0.0,0.0,0.0,0.0,0.0,0.0216877819039,-0.0575477905571,-9.81504356861,0.0,0.0,0.0,0.0,0.0,0.0,0.0,0.0,0.0
1592874837975479630,1956,1592874837974919110,imu_link,0.00110077204815,0.00396971536392,0.883055506746,0.469250467945,0.0,0.0,0.0,0.0,0.0,0.0,0.0,0.0,0.0,0.00063238248472,-0.00116018856402,0.0109799384426,0.0,0.0,0.0,0.0,0.0,0.0,0.0,0.0,0.0,0.0216815093998,-0.0551675657742,-9.81258323193,0.0,0.0,0.0,0.0,0.0,0.0,0.0,0.0,0.0
1592874837985361268,1957,1592874837984955460,imu_link,0.00109877360814,0.00396273272195,0.883035792781,0.469287628341,0.0,0.0,0.0,0.0,0.0,0.0,0.0,0.0,0.0,-0.000551498460009,0.000257370996697,-0.00366631428453,0.0,0.0,0.0,0.0,0.0,0.0,0.0,0.0,0.0,0.0120345190167,-0.0698382067494,-9.79822192192,0.0,0.0,0.0,0.0,0.0,0.0,0.0,0.0,0.0
1592874837995260128,1958,1592874837994980219,imu_link,0.00109839239456,0.00396288331834,0.88300473222,0.469346068447,0.0,0.0,0.0,0.0,0.0,0.0,0.0,0.0,0.0,-0.000538879523821,0.00154428934079,-0.00853647671995,0.0,0.0,0.0,0.0,0.0,0.0,0.0,0.0,0.0,0.00240007763496,-0.0844439413399,-9.78872053623,0.0,0.0,0.0,0.0,0.0,0.0,0.0,0.0,0.0
1592874838005143961,1959,1592874838004928013,imu_link,0.00107806151232,0.00396387721823,0.882979716745,0.469393167055,0.0,0.0,0.0,0.0,0.0,0.0,0.0,0.0,0.0,-0.00298863732074,0.00517658486358,-0.00605059219387,0.0,0.0,0.0,0.0,0.0,0.0,0.0,0.0,0.0,0.00239380541607,-0.0917145060375,-9.78638812304,0.0,0.0,0.0,0.0,0.0,0.0,0.0,0.0,0.0
1592874838015282926,1960,1592874838014985954,imu_link,0.00106087476796,0.00398921561368,0.882974648918,0.46940252457,0.0,0.0,0.0,0.0,0.0,0.0,0.0,0.0,0.0,0.00187619684198,0.00628375766697,0.002529649313,0.0,0.0,0.0,0.0,0.0,0.0,0.0,0.0,0.0,0.0096384600969,-0.0891072070226,-9.80091707706,0.0,0.0,0.0,0.0,0.0,0.0,0.0,0.0,0.0
1592874838025329486,1961,1592874838025154194,imu_link,0.0010974460869,0.00401343847929,0.882974895193,0.46940177075,0.0,0.0,0.0,0.0,0.0,0.0,0.0,0.0,0.0,0.00797852315022,-0.00474369895519,0.00484170692351,0.0,0.0,0.0,0.0,0.0,0.0,0.0,0.0,0.0,0.0241089388262,-0.0767519939691,-9.82258579731,0.0,0.0,0.0,0.0,0.0,0.0,0.0,0.0,0.0
1592874838035276638,1962,1592874838034946383,imu_link,0.00110238206967,0.00403652003837,0.882955252442,0.469438508694,0.0,0.0,0.0,0.0,0.0,0.0,0.0,0.0,0.0,0.00555714329804,0.000257151201385,-0.00365063908494,0.0,0.0,0.0,0.0,0.0,0.0,0.0,0.0,0.0,0.0289261558093,-0.0694491380826,-9.82733590603,0.0,0.0,0.0,0.0,0.0,0.0,0.0,0.0,0.0
1592874838045170188,1963,1592874838044967925,imu_link,0.00110601292004,0.00403563259119,0.882941318377,0.469464715083,0.0,0.0,0.0,0.0,0.0,0.0,0.0,0.0,0.0,0.00188564664251,-0.00221861238611,-0.00124953618742,0.0,0.0,0.0,0.0,0.0,0.0,0.0,0.0,0.0,0.0337245598435,-0.0622437033802,-9.82479729652,0.0,0.0,0.0,0.0,0.0,0.0,0.0,0.0,0.0
1592874838055325434,1964,1592874838055008294,imu_link,0.00114006765634,0.00404336643075,0.882952987988,0.469442618896,0.0,0.0,0.0,0.0,0.0,0.0,0.0,0.0,0.0,0.00674415891858,-0.00725218446007,0.00969231255006,0.0,0.0,0.0,0.0,0.0,0.0,0.0,0.0,0.0,0.038516679965,-0.0574834226631,-9.81986026764,0.0,0.0,0.0,0.0,0.0,0.0,0.0,0.0,0.0
1592874838065201552,1965,1592874838065056958,imu_link,0.0011255641871,0.00406293949853,0.882970700588,0.469409168562,0.0,0.0,0.0,0.0,0.0,0.0,0.0,0.0,0.0,0.00429438701263,0.00248823273713,0.0122598266039,0.0,0.0,0.0,0.0,0.0,0.0,0.0,0.0,0.0,0.038516679965,-0.0574834226631,-9.81986026764,0.0,0.0,0.0,0.0,0.0,0.0,0.0,0.0,0.0
1592874838075342470,1966,1592874838075026502,imu_link,0.00114470637994,0.00405182520507,0.882970858062,0.469408922127,0.0,0.0,0.0,0.0,0.0,0.0,0.0,0.0,0.0,0.000648126929104,-0.00596503502369,0.00480636386331,0.0,0.0,0.0,0.0,0.0,0.0,0.0,0.0,0.0,0.0337120079901,-0.0719594220631,-9.82006704807,0.0,0.0,0.0,0.0,0.0,0.0,0.0,0.0,0.0
1592874838085317935,1967,1592874838084888483,imu_link,0.00118450156761,0.00407349457475,0.882959583325,0.469429843334,0.0,0.0,0.0,0.0,0.0,0.0,0.0,0.0,0.0,0.00799110502582,-0.00589998263328,-6.12009294427e-05,0.0,0.0,0.0,0.0,0.0,0.0,0.0,0.0,0.0,0.0264924538787,-0.0768494972959,-9.81529006958,0.0,0.0,0.0,0.0,0.0,0.0,0.0,0.0,0.0
1592874838095126615,1968,1592874838094918181,imu_link,0.00117472200962,0.00408671451739,0.882960201625,0.469428590031,0.0,0.0,0.0,0.0,0.0,0.0,0.0,0.0,0.0,0.00186985024828,0.00258628049683,0.00492375777167,0.0,0.0,0.0,0.0,0.0,0.0,0.0,0.0,0.0,0.0216940566897,-0.0768168684095,-9.8177328825,0.0,0.0,0.0,0.0,0.0,0.0,0.0,0.0,0.0
1592874838105333047,1969,1592874838104932790,imu_link,0.00118362242037,0.00410352260247,0.88296631199,0.46941692772,0.0,0.0,0.0,0.0,0.0,0.0,0.0,0.0,0.0,0.00430699437551,0.000110299787904,0.00734062793509,0.0,0.0,0.0,0.0,0.0,0.0,0.0,0.0,0.0,0.0168956503738,-0.0767842212692,-9.82017335892,0.0,0.0,0.0,0.0,0.0,0.0,0.0,0.0,0.0
1592874838115265552,1970,1592874838114973950,imu_link,0.00116116780722,0.00412606067327,0.882966939785,0.469415605363,0.0,0.0,0.0,0.0,0.0,0.0,0.0,0.0,0.0,0.00309157031652,0.00625110585586,0.00497584961827,0.0,0.0,0.0,0.0,0.0,0.0,0.0,0.0,0.0,0.0168893778697,-0.0695786040276,-9.81764760017,0.0,0.0,0.0,0.0,0.0,0.0,0.0,0.0,0.0
1592874838125339404,1971,1592874838125186484,imu_link,0.00114053576085,0.00409409497349,0.882941769901,0.469463277081,0.0,0.0,0.0,0.0,0.0,0.0,0.0,0.0,0.0,-0.0066538564323,0.000290259264124,-0.00612558306446,0.0,0.0,0.0,0.0,0.0,0.0,0.0,0.0,0.0,0.0217128787655,-0.0718940730207,-9.82495734692,0.0,0.0,0.0,0.0,0.0,0.0,0.0,0.0,0.0
1592874838135137123,1972,1592874838134892630,imu_link,0.00117264771862,0.00408678531407,0.88291053173,0.469522008049,0.0,0.0,0.0,0.0,0.0,0.0,0.0,0.0,0.0,0.00312625668905,-0.00700715387622,-0.00864155870985,0.0,0.0,0.0,0.0,0.0,0.0,0.0,0.0,0.0,0.0241089388262,-0.0671012181789,-9.8224572897,0.0,0.0,0.0,0.0,0.0,0.0,0.0,0.0,0.0
1592874838145380295,1973,1592874838145181028,imu_link,0.00115915207671,0.00409019278258,0.882899785635,0.469542218778,0.0,0.0,0.0,0.0,0.0,0.0,0.0,0.0,0.0,0.0018824399261,0.00142996756037,2.08687273746e-05,0.0,0.0,0.0,0.0,0.0,0.0,0.0,0.0,0.0,0.0313284975011,-0.0549730793573,-9.82713730335,0.0,0.0,0.0,0.0,0.0,0.0,0.0,0.0,0.0
1592874838155245281,1974,1592874838154989727,imu_link,0.00114223577698,0.00406948866159,0.882911913985,0.469519633991,0.0,0.0,0.0,0.0,0.0,0.0,0.0,0.0,0.0,-0.00180798909985,7.78730061091e-05,0.00976799937953,0.0,0.0,0.0,0.0,0.0,0.0,0.0,0.0,0.0,0.0289387030993,-0.0452572967857,-9.83187222481,0.0,0.0,0.0,0.0,0.0,0.0,0.0,0.0,0.0
1592874838165260181,1975,1592874838164982225,imu_link,0.0011395152636,0.00408254223874,0.882931104656,0.469483438244,0.0,0.0,0.0,0.0,0.0,0.0,0.0,0.0,0.0,0.00551289737361,0.00125026842668,0.013468077813,0.0,0.0,0.0,0.0,0.0,0.0,0.0,0.0,0.0,0.0241340311244,-0.0452571370639,-9.83188507557,0.0,0.0,0.0,0.0,0.0,0.0,0.0,0.0,0.0
1592874838175421398,1976,1592874838174998789,imu_link,0.00110382514467,0.0041019558983,0.882936179544,0.469473810112,0.0,0.0,0.0,0.0,0.0,0.0,0.0,0.0,0.0,0.0030852016165,0.00866171134899,0.00745161465243,0.0,0.0,0.0,0.0,0.0,0.0,0.0,0.0,0.0,0.0144995914539,-0.0502120547928,-9.82225635052,0.0,0.0,0.0,0.0,0.0,0.0,0.0,0.0,0.0
1592874838185119579,1977,1592874838184941352,imu_link,0.00114463226166,0.00411893673751,0.882926395835,0.469491963419,0.0,0.0,0.0,0.0,0.0,0.0,0.0,0.0,0.0,0.00920959900212,-0.00469471603705,0.00117969803936,0.0,0.0,0.0,0.0,0.0,0.0,0.0,0.0,0.0,0.00968237447087,-0.0575149061158,-9.81750507355,0.0,0.0,0.0,0.0,0.0,0.0,0.0,0.0,0.0
1592874838195494190,1978,1592874838195031404,imu_link,0.00115960680874,0.00412581416927,0.882928213799,0.469488447405,0.0,0.0,0.0,0.0,0.0,0.0,0.0,0.0,0.0,0.00431006637341,-0.0010949842902,0.00610250406904,0.0,0.0,0.0,0.0,0.0,0.0,0.0,0.0,0.0,0.00966982832178,-0.0648179217242,-9.81274211407,0.0,0.0,0.0,0.0,0.0,0.0,0.0,0.0,0.0
1592874838205109914,1979,1592874838204921297,imu_link,0.00120841963441,0.00412822918434,0.882946918167,0.46945312561,0.0,0.0,0.0,0.0,0.0,0.0,0.0,0.0,0.0,0.00673458922379,-0.00730113929019,0.0133568679519,0.0,0.0,0.0,0.0,0.0,0.0,0.0,0.0,0.0,0.00725493705831,-0.0648827824742,-9.80788919926,0.0,0.0,0.0,0.0,0.0,0.0,0.0,0.0,0.0
1592874838215181632,1980,1592874838214979149,imu_link,0.00122758974741,0.00410516238418,0.882951447877,0.469444758579,0.0,0.0,0.0,0.0,0.0,0.0,0.0,0.0,0.0,-0.000580010473058,-0.00477601631071,0.00726248756445,0.0,0.0,0.0,0.0,0.0,0.0,0.0,0.0,0.0,0.00964473602362,-0.064947802946,-9.80302343369,0.0,0.0,0.0,0.0,0.0,0.0,0.0,0.0,0.0
1592874838225059573,1981,1592874838224892336,imu_link,0.00121509900579,0.00408281709099,0.882950144687,0.469447437032,0.0,0.0,0.0,0.0,0.0,0.0,0.0,0.0,0.0,-0.00301401121199,0.000159528110551,0.00365661325221,0.0,0.0,0.0,0.0,0.0,0.0,0.0,0.0,0.0,0.0168580096448,-0.0600901968777,-9.80536928177,0.0,0.0,0.0,0.0,0.0,0.0,0.0,0.0,0.0
1592874838235376124,1982,1592874838235151759,imu_link,0.0012374183897,0.00406970131084,0.882939935455,0.469466693925,0.0,0.0,0.0,0.0,0.0,0.0,0.0,0.0,0.0,0.00188235150083,-0.00589976833204,-7.72661308038e-05,0.0,0.0,0.0,0.0,0.0,0.0,0.0,0.0,0.0,0.0240838442463,-0.0599930221215,-9.81264164448,0.0,0.0,0.0,0.0,0.0,0.0,0.0,0.0,0.0
1592874838245357030,1983,1592874838245011346,imu_link,0.00124419703876,0.0040743862555,0.882927037523,0.469490892095,0.0,0.0,0.0,0.0,0.0,0.0,0.0,0.0,0.0,0.00310722575046,-0.0022186175876,-0.00124677146733,0.0,0.0,0.0,0.0,0.0,0.0,0.0,0.0,0.0,0.0313034006394,-0.0647537318058,-9.81754713058,0.0,0.0,0.0,0.0,0.0,0.0,0.0,0.0,0.0
1592874838255166250,1984,1592874838254967564,imu_link,0.00127120940963,0.00405316944048,0.882908239982,0.469526352418,0.0,0.0,0.0,0.0,0.0,0.0,0.0,0.0,0.0,0.000670071675385,-0.00829398238089,-0.00377795768954,0.0,0.0,0.0,0.0,0.0,0.0,0.0,0.0,0.0,0.0313222227152,-0.0622436303645,-9.82480430603,0.0,0.0,0.0,0.0,0.0,0.0,0.0,0.0,0.0
1592874838265172895,1985,1592874838264965332,imu_link,0.00129518349128,0.00403928987642,0.882863859752,0.4696098506,0.0,0.0,0.0,0.0,0.0,0.0,0.0,0.0,0.0,0.00192017736055,-0.00692546817241,-0.0147530509475,0.0,0.0,0.0,0.0,0.0,0.0,0.0,0.0,0.0,0.0289136108011,-0.0598633006215,-9.8223474741,0.0,0.0,0.0,0.0,0.0,0.0,0.0,0.0,0.0
1592874838275400247,1986,1592874838274975142,imu_link,0.00128898031585,0.00403196239161,0.88283994084,0.469654895287,0.0,0.0,0.0,0.0,0.0,0.0,0.0,0.0,0.0,0.000676360467571,-0.000931584274403,-0.00612327256418,0.0,0.0,0.0,0.0,0.0,0.0,0.0,0.0,0.0,0.0289010612294,-0.055102873873,-9.81742329597,0.0,0.0,0.0,0.0,0.0,0.0,0.0,0.0,0.0
1592874838285323934,1987,1592874838285177758,imu_link,0.00131387949783,0.00401362003899,0.882847324489,0.469641103628,0.0,0.0,0.0,0.0,0.0,0.0,0.0,0.0,0.0,0.00186338089949,-0.00721931522684,0.00723602604239,0.0,0.0,0.0,0.0,0.0,0.0,0.0,0.0,0.0,0.0264861813746,-0.0527550406754,-9.81253767014,0.0,0.0,0.0,0.0,0.0,0.0,0.0,0.0,0.0
1592874838295270485,1988,1592874838294953075,imu_link,0.00130272977578,0.0040240980491,0.882846425688,0.469642734619,0.0,0.0,0.0,0.0,0.0,0.0,0.0,0.0,0.0,0.00309456117123,0.00138097631985,0.0036885906906,0.0,0.0,0.0,0.0,0.0,0.0,0.0,0.0,0.0,0.0312845785636,-0.0576130665839,-9.81015911102,0.0,0.0,0.0,0.0,0.0,0.0,0.0,0.0,0.0
1592874838305286417,1989,1592874838304973976,imu_link,0.00127508995893,0.00402277741538,0.882857051584,0.469622846415,0.0,0.0,0.0,0.0,0.0,0.0,0.0,0.0,0.0,-0.000583245862654,0.00253743385763,0.00858190650269,0.0,0.0,0.0,0.0,0.0,0.0,0.0,0.0,0.0,0.0384915899485,-0.0576133038849,-9.81014158726,0.0,0.0,0.0,0.0,0.0,0.0,0.0,0.0,0.0
1592874838315266541,1990,1592874838314972205,imu_link,0.00130052833329,0.00403325505799,0.882864297393,0.469609064934,0.0,0.0,0.0,0.0,0.0,0.0,0.0,0.0,0.0,0.0067502602622,-0.00599783507716,0.00726491717878,0.0,0.0,0.0,0.0,0.0,0.0,0.0,0.0,0.0,0.0408876545727,-0.055233174935,-9.80767424107,0.0,0.0,0.0,0.0,0.0,0.0,0.0,0.0,0.0
